City_ID,City,Lat,Lng,Max Temp,Humidity,Cloudiness,Wind Speed,Country,Date
0,aasiaat,68.7098,-52.8699,-5.12,94,100,7.7,GL,1702241839
1,stanley,54.868,-1.6985,5.99,97,40,1.03,GB,1702241839
2,waitangi,-43.9535,-176.5597,13.79,56,2,2.95,NZ,1702241839
3,whitehorse,60.7161,-135.0538,-15.66,84,75,2.06,CA,1702241839
4,port-aux-francais,-49.35,70.2167,3.41,77,50,9.75,TF,1702241840
5,colonia,40.5746,-74.3021,17.07,86,100,2.57,US,1702241840
6,port mathurin,-19.6833,63.4167,26.15,77,60,3.24,MU,1702241840
7,hamilton,43.2334,-79.9496,5.1,68,100,4.12,CA,1702241697
8,bethel,41.3712,-73.414,14.19,89,100,2.57,US,1702241841
9,salinopolis,-0.6136,-47.3561,27.51,76,22,5.33,BR,1702241841
10,adamstown,-25.066,-130.1015,20.98,58,0,3.76,PN,1702241841
11,luau,-10.7073,22.2247,18.71,97,100,1.79,AO,1702241842
12,dudinka,69.4058,86.1778,-27.99,97,100,5.36,RU,1702241842
13,al jawf,24.1989,23.2909,12.97,53,0,4.8,LY,1702241842
14,dampit,-8.2116,112.7493,21.74,93,91,0.46,ID,1702241843
15,anadyr,64.75,177.4833,-25.56,75,20,5.0,RU,1702241843
16,nema,57.5067,50.5011,-24.61,96,100,2.45,RU,1702241843
17,grytviken,-54.2811,-36.5092,5.68,88,100,6.53,GS,1702241843
18,chom bueng,13.62,99.5917,22.96,86,6,1.43,TH,1702241844
19,bredasdorp,-34.5322,20.0403,16.7,75,0,3.39,ZA,1702241844
20,yamada,39.4667,141.95,4.48,65,100,2.11,JP,1702241844
21,bijar,35.8668,47.6051,3.16,64,84,2.06,IR,1702241844
22,hermanus,-34.4187,19.2345,17.39,76,0,4.88,ZA,1702241845
23,albany,42.6526,-73.7562,14.56,94,100,4.12,US,1702241845
24,puerto natales,-51.7236,-72.4875,12.25,58,75,6.17,CL,1702241845
25,ust-nera,64.5667,143.2,-19.21,98,100,3.5,RU,1702241846
26,yellowknife,62.456,-114.3525,-11.71,96,100,7.2,CA,1702241638
27,utrik,11.2278,169.8474,27.28,76,48,9.85,MH,1702241846
28,benjamin constant,-4.3831,-70.0311,32.07,66,20,1.54,BR,1702241847
29,mungeli,22.0667,81.6833,16.27,66,0,2.08,IN,1702241847
30,harper,4.375,-7.7169,26.89,81,20,3.25,LR,1702241847
31,forio,40.7342,13.8646,14.68,68,3,5.36,IT,1702241847
32,talnakh,69.4865,88.3972,-28.22,99,100,4.13,RU,1702241848
33,ndele,8.4109,20.6473,26.56,23,100,0.93,CF,1702241848
34,ilulissat,69.2167,-51.1,-4.89,96,100,3.49,GL,1702241848
35,kavaratti,10.5669,72.642,28.69,72,100,0.96,IN,1702241849
36,kerikeri,-35.2268,173.9474,18.84,85,92,0.45,NZ,1702241849
37,edinburgh of the seven seas,-37.0676,-12.3116,13.58,70,97,6.8,SH,1702241849
38,klyuchi,52.2667,79.1667,-21.18,86,21,2.44,RU,1702241850
39,port isabel,26.0734,-97.2086,19.02,27,0,7.2,US,1702241850
40,santa ana,33.7456,-117.8678,26.07,16,20,1.54,US,1702241643
41,selfoss,63.9331,-20.9971,-1.09,78,100,2.08,IS,1702241850
42,susuman,62.7833,148.1667,-17.79,96,99,2.68,RU,1702241851
43,bonthe,7.5264,-12.505,27.16,79,57,3.38,SL,1702241851
44,fortuna,40.5982,-124.1573,14.99,77,0,0.89,US,1702241852
45,enewetak,11.3474,162.3373,27.65,75,100,7.59,MH,1702241852
46,puerto baquerizo moreno,-0.9,-89.6,28.55,65,20,6.17,EC,1702241852
47,kodiak,57.79,-152.4072,3.73,93,100,8.23,US,1702241853
48,sandnessjoen,66.0217,12.6316,0.06,59,75,2.57,NO,1702241853
49,kemi,65.7364,24.5637,-10.97,85,20,2.06,FI,1702241853
50,yanqul,23.5905,56.5501,18.33,58,6,1.3,OM,1702241854
51,mangalia,43.8,28.5833,5.77,86,67,3.73,RO,1702241854
52,invercargill,-46.4,168.35,13.3,49,30,4.43,NZ,1702241854
53,belyy yar,53.6039,91.3903,-32.06,68,20,0.0,RU,1702241855
54,tosontsengel,48.7567,98.2839,-24.35,99,100,0.63,MN,1702241855
55,laguna de perlas,12.3429,-83.6712,30.05,90,26,5.53,NI,1702241855
56,uttar char fasson,22.2332,90.7132,18.99,64,0,4.22,BD,1702241855
57,bamboo flat,11.7,92.7167,26.05,94,20,1.03,IN,1702241856
58,saint-imier,47.1528,6.9969,7.95,83,100,4.63,CH,1702241856
59,blackmans bay,-43.0167,147.3167,13.74,68,56,0.45,AU,1702241856
60,acajutla,13.5928,-89.8275,30.69,59,2,2.48,SV,1702241856
61,iqaluit,63.7506,-68.5145,-5.15,79,100,4.63,CA,1702241857
62,college,64.8569,-147.8028,-20.61,76,75,2.57,US,1702241857
63,cabo san lucas,22.8909,-109.9124,30.34,50,0,4.23,MX,1702241835
64,raja,58.7964,26.9497,-8.23,95,100,3.96,EE,1702241858
65,paita,-5.0892,-81.1144,23.44,73,8,7.91,PE,1702241858
66,ribeira grande,38.5167,-28.7,18.22,72,40,9.77,PT,1702241858
67,bandon,51.7469,-8.7425,9.77,74,86,10.62,IE,1702241859
68,regina,50.4501,-104.6178,2.06,71,20,4.12,CA,1702241832
69,lihue,21.9789,-159.3672,26.58,78,75,4.12,US,1702241859
70,bilibino,68.0546,166.4372,-26.14,98,50,1.8,RU,1702241860
71,port augusta,-32.5,137.7667,17.16,84,99,4.87,AU,1702241860
72,dalandzadgad,43.5708,104.425,-8.33,64,34,1.0,MN,1702241860
73,west island,-12.1568,96.8225,25.99,83,40,4.12,CC,1702241860
74,port elizabeth,-33.918,25.5701,16.84,88,0,1.54,ZA,1702241861
75,ushuaia,-54.8,-68.3,10.79,46,0,9.26,AR,1702241859
76,pacific grove,36.6177,-121.9166,20.3,32,0,0.45,US,1702241861
77,masindi,1.6744,31.715,18.3,94,61,0.47,UG,1702241861
78,touros,-5.1989,-35.4608,26.61,67,36,5.1,BR,1702241853
79,chaplynka,46.3651,33.5403,4.41,92,100,3.15,UA,1702241862
80,sitka,57.0531,-135.33,2.94,87,40,3.09,US,1702241583
81,port alfred,-33.5906,26.891,16.77,92,19,1.41,ZA,1702241863
82,atafu village,-8.5421,-172.5159,29.03,77,100,7.15,TK,1702241863
83,gornozavodsk,58.3758,58.3211,-33.08,100,49,1.25,RU,1702241864
84,arteche,12.2645,125.4048,25.69,88,99,4.12,PH,1702241864
85,douglas,54.15,-4.4833,9.88,93,100,6.17,IM,1702241864
86,remire-montjoly,4.9167,-52.2667,29.02,74,20,4.12,GF,1702241864
87,iskateley,67.6803,53.1512,-22.77,91,99,4.92,RU,1702241864
88,vilyuchinsk,52.9306,158.4028,2.15,99,100,7.51,RU,1702241865
89,glace bay,46.1969,-59.957,4.53,81,75,4.12,CA,1702241865
90,zhezqazghan,47.7833,67.7667,-17.7,57,30,5.5,KZ,1702241865
91,chos malal,-37.3781,-70.2709,32.32,8,99,1.59,AR,1702241865
92,pangkalpinang,-2.1333,106.1333,25.3,91,87,1.92,ID,1702241866
93,khanty-mansiysk,61.0042,69.0019,-39.94,60,20,1.0,RU,1702241866
94,kuta,-8.7233,115.1723,26.97,88,20,1.03,ID,1702241866
95,jurbarkas,55.0778,22.7664,-1.24,93,100,4.82,LT,1702241866
96,bernalillo,35.3,-106.5511,8.4,27,31,6.71,US,1702241867
97,revda,56.801,59.9303,-30.5,100,100,1.57,RU,1702241867
98,kargasok,59.0556,80.8572,-32.24,100,7,2.68,RU,1702241867
99,sabaudia,41.3003,13.0282,11.92,75,9,3.41,IT,1702241867
100,tripoli,32.8752,13.1875,18.74,57,19,9.42,LY,1702241868
101,paradip garh,20.3167,86.6167,20.42,55,0,3.21,IN,1702241868
102,keflavik,64.0049,-22.5624,1.24,86,75,4.63,IS,1702241868
103,jamestown,42.097,-79.2353,3.64,78,100,3.6,US,1702241581
104,khalis,33.82,44.5264,17.32,51,100,3.06,IQ,1702241869
105,ust-tsilma,65.441,52.1498,-25.44,98,100,2.28,RU,1702241869
106,filingue,14.3521,3.3168,25.14,12,38,3.37,NE,1702241869
107,punta arenas,-53.15,-70.9167,9.06,61,75,6.17,CL,1702241736
108,puerto ayora,-0.7393,-90.3518,28.98,77,31,4.12,EC,1702241870
109,mount pearl,47.5166,-52.7813,0.64,84,75,3.6,CA,1702241870
110,newman,37.3138,-121.0208,15.16,57,100,0.89,US,1702241788
111,tefe,-3.3542,-64.7114,32.06,70,20,2.57,BR,1702241871
112,rio grande,-32.035,-52.0986,21.64,85,87,8.03,BR,1702241585
113,naze,28.3667,129.4833,20.51,84,50,6.51,JP,1702241871
114,chernyshevskiy,63.0128,112.4714,-29.86,98,100,1.4,RU,1702241872
115,xai-xai,-25.0519,33.6442,24.21,91,100,3.92,MZ,1702241872
116,saint-joseph,-21.3667,55.6167,25.21,84,87,5.32,RE,1702241872
117,cidreira,-30.1811,-50.2056,20.13,93,96,8.11,BR,1702241873
118,saipan,15.2123,145.7545,25.08,89,40,4.12,MP,1702241873
119,acapulco de juarez,16.8634,-99.8901,29.59,62,95,2.61,MX,1702241649
120,saynshand,44.8824,110.1163,-15.38,87,100,3.17,MN,1702241873
121,villa emilio carranza,19.9667,-96.6,17.28,75,100,11.12,MX,1702241874
122,hawaiian paradise park,19.5933,-154.9731,25.57,97,100,0.45,US,1702241874
123,minas de marcona,-15.2119,-75.1103,19.25,62,80,5.54,PE,1702241875
124,wailua homesteads,22.0669,-159.378,25.97,79,75,4.12,US,1702241875
125,uturoa,-16.7333,-151.4333,26.84,80,42,10.39,PF,1702241875
126,el reno,35.5323,-97.955,10.2,30,0,4.12,US,1702241875
127,saint-philippe,-21.3585,55.7679,25.77,86,97,5.9,RE,1702241876
128,codrington,-38.2667,141.9667,15.66,82,100,8.82,AU,1702241876
129,karasuk,53.7377,78.0403,-27.58,95,93,2.89,RU,1702241876
130,olonkinbyen,70.9221,-8.7187,-5.26,54,32,2.39,SJ,1702241876
131,kidal,18.4411,1.4078,20.82,18,1,6.12,ML,1702241877
132,arraial do cabo,-22.9661,-42.0278,24.98,65,75,6.17,BR,1702241877
133,meridian,43.6121,-116.3915,5.77,71,100,3.09,US,1702241878
134,tiksi,71.6872,128.8694,-24.66,100,100,1.89,RU,1702241878
135,egilsstadir,65.2653,-14.3948,-2.05,100,100,1.03,IS,1702241878
136,dakoro,14.5106,6.765,20.68,23,0,7.1,NE,1702241878
137,brookings,44.3114,-96.7984,1.0,75,0,1.54,US,1702241879
138,portland,45.5234,-122.6762,12.56,95,100,4.47,US,1702241673
139,nelson bay,-32.7167,152.15,23.38,78,2,2.24,AU,1702241729
140,ostersund,63.1792,14.6357,-3.75,93,100,5.66,SE,1702241879
141,longyearbyen,78.2186,15.6401,-1.09,80,40,5.66,SJ,1702241879
142,kuchera,26.9839,73.9719,14.48,31,6,1.08,IN,1702241880
143,praia da vitoria,38.7333,-27.0667,17.64,82,20,5.67,PT,1702241880
144,bloemfontein,-29.1211,26.214,14.71,88,100,6.69,ZA,1702241880
145,haiku-pauwela,20.9219,-156.3051,28.01,64,20,4.47,US,1702241881
146,mayiladuthurai,11.1,79.6667,24.71,85,58,3.38,IN,1702241881
147,galesong,-5.3166,119.3661,25.01,83,100,2.26,ID,1702241881
148,zhangye,38.9342,100.4517,-1.83,39,100,2.33,CN,1702241881
149,labrador city,52.9463,-66.9114,-1.05,93,100,5.14,CA,1702241882
150,muisne,0.6,-80.0333,26.14,83,84,4.7,EC,1702241882
151,cannonvale,-20.2833,148.7,24.66,83,100,11.94,AU,1702241883
152,ebaye,8.7748,167.7392,27.01,89,75,6.17,MH,1702241883
153,rybnoye,54.7256,39.5119,-8.68,94,100,5.56,RU,1702241883
154,karratha,-20.7377,116.8463,25.46,18,6,6.88,AU,1702241884
155,igrim,63.1906,64.4162,-35.5,100,11,1.27,RU,1702241884
156,ancud,-41.8697,-73.8203,14.53,76,100,4.07,CL,1702241884
157,bonao,18.9369,-70.4092,24.13,93,57,1.7,DO,1702241884
158,thompson,55.7435,-97.8558,-15.91,92,100,0.0,CA,1702241885
159,rongelap,11.1635,166.8941,27.24,78,99,9.33,MH,1702241885
160,port angeles,48.1181,-123.4307,9.73,80,100,1.54,US,1702241611
161,koraput,18.8167,82.7167,13.84,83,0,2.02,IN,1702241885
162,grand falls-windsor,48.9332,-55.6649,0.28,78,99,2.47,CA,1702241886
163,shiyan,32.6475,110.7781,3.13,94,100,1.39,CN,1702241886
164,great falls,47.5002,-111.3008,8.25,49,0,11.32,US,1702241656
165,shagonar,51.5333,92.8,-29.96,98,100,0.69,RU,1702241886
166,trincomalee,8.5711,81.2335,26.59,80,100,1.43,LK,1702241887
167,gobabis,-22.45,18.9667,23.79,20,0,4.63,NA,1702241887
168,male,4.1748,73.5089,26.97,89,75,1.54,MV,1702241887
169,agadez,19.75,10.25,15.4,37,0,4.64,NE,1702241888
170,boende,-0.2167,20.8667,22.85,93,68,1.02,CD,1702241888
171,ahtari,62.554,24.0619,-10.25,98,81,2.28,FI,1702241888
172,penafiel,41.2084,-8.2829,15.51,94,96,1.73,PT,1702241889
173,tual,-5.6667,132.75,28.89,74,99,6.7,ID,1702241889
174,cova figueira,14.8905,-24.2934,23.92,65,100,4.24,CV,1702241889
175,oromocto,45.8351,-66.4792,10.4,89,100,3.09,CA,1702241889
176,abomsa,9.9833,39.9833,19.3,42,3,1.69,ET,1702241890
177,kiruna,67.8557,20.2251,-12.49,79,100,4.12,SE,1702241890
178,nantucket,41.2835,-70.0995,12.86,100,100,6.69,US,1702241647
179,yopal,5.3378,-72.3959,30.99,57,85,2.38,CO,1702241866
180,caleta de carquin,-11.0925,-77.6267,22.09,74,29,4.97,PE,1702241891
181,palmer,42.1584,-72.3287,14.92,85,100,1.79,US,1702241892
182,lata,40.1629,-8.3327,15.6,94,21,1.65,PT,1702241892
183,saudarkrokur,65.7461,-19.6394,-6.11,81,42,5.08,IS,1702241840
184,porto velho,-8.7619,-63.9039,32.03,58,40,1.03,BR,1702241892
185,sesheke,-17.4759,24.2968,21.57,82,100,0.91,ZM,1702241893
186,kingston,17.997,-76.7936,31.25,63,20,11.83,JM,1702241715
187,lompoc,34.6391,-120.4579,25.94,27,0,2.06,US,1702241893
188,mar del plata,-38.0023,-57.5575,26.02,77,20,5.14,AR,1702241643
189,kalmunai,7.4167,81.8167,25.3,87,85,1.41,LK,1702241894
190,margaret river,-33.95,115.0667,12.81,59,0,5.53,AU,1702241894
191,mancio lima,-7.6142,-72.8958,32.04,62,75,3.6,BR,1702241894
192,bontang,0.1333,117.5,24.46,95,100,4.07,ID,1702241895
193,neubrandenburg,53.5667,13.2667,6.99,87,100,5.67,DE,1702241895
194,mejit,10.2753,170.8646,27.39,74,100,9.69,MH,1702241895
195,qaqortoq,60.7167,-46.0333,-8.02,75,100,1.81,GL,1702241895
196,fuglafjordur,62.244,-6.814,6.26,93,100,4.86,FO,1702241896
197,balotra,25.8333,72.2333,18.67,29,3,1.42,IN,1702241896
198,happy valley-goose bay,53.3168,-60.3315,-1.83,69,100,2.57,CA,1702241896
199,lavis,46.1395,11.1129,5.61,80,100,0.89,IT,1702241896
200,mo i rana,66.3128,14.1428,-3.74,58,75,5.66,NO,1702241897
201,greenland,43.0362,-70.8328,15.19,92,100,5.66,US,1702241897
202,marakkanam,12.2,79.95,25.45,84,71,4.19,IN,1702241897
203,avarua,-21.2078,-159.775,25.03,94,75,10.8,CK,1702241897
204,kaga bandoro,6.9896,19.1874,23.97,37,89,1.16,CF,1702241898
205,bikaner,28.0167,73.3,16.02,27,0,1.15,IN,1702241898
206,putatan,5.9258,116.0609,24.01,94,20,2.57,MY,1702241898
207,luanda,-8.8368,13.2343,27.0,81,75,2.06,AO,1702241693
208,westport,41.1415,-73.3579,14.77,92,100,7.72,US,1702241899
209,lospalos,-8.5186,127.0025,23.44,88,100,0.72,TL,1702241899
210,holualoa,19.6228,-155.9522,26.97,70,0,4.12,US,1702241899
211,luderitz,-26.6481,15.1594,18.46,66,2,8.71,NA,1702241899
212,buenos aires,-34.6132,-58.3772,27.75,42,20,4.63,AR,1702241854
213,al hada,21.3675,40.2869,12.66,43,90,1.84,SA,1702241900
214,bubaque,11.2833,-15.8333,29.89,47,100,3.02,GW,1702241900
215,retreat,38.8245,-85.8533,3.32,70,100,1.34,US,1702241900
216,jieshi,22.8134,115.8257,21.91,87,86,2.1,CN,1702241901
217,butler,40.8612,-79.8953,4.77,80,100,3.09,US,1702241901
218,nuuk,64.1835,-51.7216,-7.44,79,99,3.54,GL,1702241901
219,essaouira,31.5125,-9.77,19.72,30,2,1.54,MA,1702241720
220,chonchi,-42.6128,-73.8092,18.95,61,99,1.35,CL,1702241902
221,mulayjah,27.271,48.4242,21.79,22,96,2.0,SA,1702241902
222,salekhard,66.53,66.6019,-29.05,100,100,3.28,RU,1702241902
223,ar rahad,12.7167,30.65,24.21,16,8,3.45,SD,1702241903
224,walvis bay,-22.9575,14.5053,17.53,77,20,2.57,NA,1702241903
225,sechura,-5.5569,-80.8222,27.37,56,15,6.85,PE,1702241903
226,wynyard,-41.0,145.7167,16.02,41,100,1.15,AU,1702241904
227,kerur,16.0167,75.5667,24.35,48,100,4.8,IN,1702241904
228,bermeo,43.4209,-2.7215,20.11,74,100,4.83,ES,1702241904
229,nizhnesortymskiy,62.4397,71.7603,-38.4,100,23,2.15,RU,1702241904
230,ola,59.5833,151.2833,-5.75,79,100,9.7,RU,1702241905
231,lazaro cardenas,17.9583,-102.2,29.01,58,100,2.87,MX,1702241905
232,kapoeta,4.7717,33.5903,28.88,34,20,3.14,SS,1702241905
233,vila franca do campo,37.7167,-25.4333,18.27,99,100,4.36,PT,1702241906
234,chita,52.0333,113.55,-36.06,68,9,0.0,RU,1702241906
235,xinyuan,37.3,99.0,-9.84,64,87,1.87,CN,1702241906
236,saldanha,-33.0117,17.9442,20.03,87,0,8.29,ZA,1702241906
237,amga,60.8953,131.9608,-28.07,91,100,3.97,RU,1702241907
238,mili,6.0815,171.735,27.95,82,89,7.28,MH,1702241907
239,murzuq,25.9155,13.9184,15.88,57,98,5.85,LY,1702241907
240,virginia beach,36.8529,-75.978,19.45,97,100,4.63,US,1702241907
241,senador pompeu,-5.5881,-39.3717,30.71,45,47,3.67,BR,1702241908
242,porto novo,17.0197,-25.0647,26.0,57,94,3.24,CV,1702241909
243,hithadhoo,-0.6,73.0833,27.67,74,100,1.63,MV,1702241909
244,ingraj bazar,25.0,88.15,16.41,39,0,1.85,IN,1702241909
245,tsuruoka,38.7217,139.8217,5.75,68,100,2.83,JP,1702241910
246,namibe,-15.1961,12.1522,23.04,75,76,1.93,AO,1702241910
247,mount isa,-20.7333,139.5,21.87,56,99,7.2,AU,1702241910
248,robertsport,6.7533,-11.3686,27.7,84,61,4.87,LR,1702241911
249,pandan,14.0453,124.1694,26.55,84,76,3.71,PH,1702241911
250,playa del ingles,27.7567,-15.5787,20.86,86,100,2.38,ES,1702241889
251,i-n-salah,27.1935,2.4607,15.34,48,10,5.3,DZ,1702241912
252,dolinsk,47.35,142.8,-11.36,80,73,6.83,RU,1702241782
253,vila velha,-20.3297,-40.2925,25.97,77,40,5.14,BR,1702241912
254,kawambwa,-9.7915,29.0791,18.54,92,100,1.54,ZM,1702241912
255,surgut,61.25,73.4167,-40.9,74,0,2.0,RU,1702241853
256,riverton,40.5219,-111.9391,7.47,39,0,4.02,US,1702241913
257,puerto armuelles,8.2833,-82.8667,30.99,73,20,3.13,PA,1702241913
258,warmbad,-28.45,18.7333,22.46,19,0,5.98,NA,1702241914
259,guli,28.8833,120.0333,15.56,90,36,0.29,CN,1702241914
260,nianzishan,47.5167,122.8833,-23.17,84,1,1.61,CN,1702241914
261,menongue,-14.6585,17.691,19.69,84,100,2.98,AO,1702241914
262,mandiana,10.6333,-8.6833,26.34,17,100,1.69,GN,1702241915
263,nemuro,43.3236,145.575,-1.38,53,19,5.01,JP,1702241915
264,lensk,60.7253,114.9278,-26.98,94,100,4.25,RU,1702241790
265,tura,25.5198,90.2201,13.88,54,0,1.69,IN,1702241916
266,ludlow,42.1601,-72.4759,15.17,90,100,1.54,US,1702241696
267,dhidhdhoo,6.8833,73.1,28.45,78,94,5.81,MV,1702241916
268,talara,-4.5772,-81.2719,28.42,61,0,6.17,PE,1702241626
269,ranchettes,41.2186,-104.7903,6.91,36,0,18.01,US,1702241917
270,vilafranca del penedes,41.35,1.7,15.44,84,99,2.24,ES,1702241917
271,gadzhiyevo,69.2551,33.3362,-11.88,86,96,8.57,RU,1702241917
272,hobyo,5.3505,48.5268,26.73,80,36,7.85,SO,1702241917
273,bria,6.5423,21.9863,25.03,45,100,0.94,CF,1702241918
274,mayya,61.7333,130.2811,-33.38,90,100,4.61,RU,1702241919
275,valdivia,-39.8142,-73.2459,26.05,50,100,1.51,CL,1702241835
276,port lincoln,-34.7333,135.8667,15.97,97,100,5.71,AU,1702241919
277,corner brook,48.9667,-57.9484,-0.91,93,100,2.15,CA,1702241920
278,pontianak,-0.0333,109.3333,23.99,94,20,0.51,ID,1702241920
279,bima,-8.4667,118.7167,25.32,94,100,1.46,ID,1702241920
280,el porvenir,13.7617,-87.3458,29.63,47,33,4.04,HN,1702241921
281,kozova,49.4354,25.1509,-4.51,96,100,2.64,UA,1702241857
282,guerrero negro,27.9769,-114.0611,23.23,23,0,2.09,MX,1702241922
283,pathein,16.7833,94.7333,23.47,80,13,3.03,MM,1702241922
284,shingu,33.7333,135.9833,12.87,73,88,2.33,JP,1702241922
285,robbah,33.2797,6.9098,10.8,40,0,3.78,DZ,1702241922
286,thulamahashi,-24.7246,31.1994,20.07,96,100,2.87,ZA,1702241923
287,bandarbeyla,9.4942,50.8122,25.42,75,35,10.09,SO,1702241923
288,margate,51.3813,1.3862,11.06,83,0,5.81,GB,1702241923
289,carnarvon,-24.8667,113.6333,25.39,25,0,7.96,AU,1702241923
290,labytnangi,66.6572,66.4183,-29.36,100,99,2.95,RU,1702241923
291,flin flon,54.7682,-101.865,-8.09,93,100,1.54,CA,1702241924
292,katsuura,35.1333,140.3,13.29,79,96,1.65,JP,1702241924
293,turpan,42.9333,89.1667,0.63,71,71,1.53,CN,1702241924
294,santa marta,11.2408,-74.199,33.03,62,20,1.54,CO,1702241924
295,bintulu,3.1667,113.0333,25.23,94,40,3.09,MY,1702241925
296,ondjiva,-17.0667,15.7333,27.02,57,0,0.51,AO,1702241925
297,kharp,66.8014,65.8081,-27.66,100,97,1.54,RU,1702241925
298,la ronge,55.1001,-105.2842,-9.86,85,75,2.57,CA,1702241926
299,belen,36.4891,36.2233,10.77,98,100,2.94,TR,1702241926
300,badger,64.8,-147.5333,-20.66,75,75,2.57,US,1702241926
301,charlottetown,46.2352,-63.1267,6.16,86,100,8.75,CA,1702241708
302,cooma,-36.2333,149.1333,20.42,77,99,0.15,AU,1702241898
303,papao,-17.75,-149.55,29.82,83,66,12.53,PF,1702241927
304,praia,14.9215,-23.5087,25.3,69,0,4.63,CV,1702241927
305,georgetown,6.8045,-58.1553,31.16,70,20,3.09,GY,1702241928
306,teocaltiche,21.4333,-102.5833,22.85,32,84,2.4,MX,1702241928
307,torghay,49.6339,63.4981,-20.39,81,7,6.1,KZ,1702241928
308,barra de santo antonio,-9.4047,-35.5072,26.6,73,41,4.46,BR,1702241928
309,constantia,-34.0314,18.4183,19.62,61,0,4.12,ZA,1702241928
310,taoudenni,22.6783,-3.9836,19.68,21,100,7.09,ML,1702241929
311,tsengel,49.4783,100.8894,-21.91,96,100,0.59,MN,1702241929
312,palikir - national government center,6.9248,158.1611,27.83,74,20,7.49,FM,1702241929
313,kannus,63.9,23.9,-9.76,97,80,1.91,FI,1702241929
314,vorgashor,67.5833,63.95,-25.45,100,100,2.78,RU,1702241930
315,santa elena de uairen,4.6167,-61.1333,26.43,54,90,1.55,VE,1702241930
316,urangan,-25.3,152.9,24.61,65,55,8.1,AU,1702241930
317,van,38.4924,43.3831,4.05,75,100,1.12,TR,1702241930
318,penzance,50.1186,-5.5371,12.38,81,1,14.55,GB,1702241931
319,rikaze,29.25,88.8833,-1.75,41,0,1.58,CN,1702241931
320,playa vicente,17.8333,-95.8167,18.58,91,100,5.67,MX,1702241931
321,kill devil hills,36.0307,-75.676,19.0,94,75,6.17,US,1702241676
322,horta,38.5333,-28.6333,17.8,76,40,9.77,PT,1702241932
323,fort bragg,35.139,-79.006,22.12,84,100,3.6,US,1702241932
324,marsabit,2.3284,37.9899,21.17,57,31,4.39,KE,1702241932
325,kapuskasing,49.4169,-82.4331,-5.95,93,100,6.17,CA,1702241908
326,manokwari,-0.8667,134.0833,25.65,80,100,2.84,ID,1702241933
327,new norfolk,-42.7826,147.0587,14.4,53,77,1.35,AU,1702241934
328,queenstown,-31.8976,26.8753,11.33,90,100,1.6,ZA,1702241765
329,bengkulu,-3.8004,102.2655,23.73,91,100,1.45,ID,1702241934
330,barcelos,41.5388,-8.6151,17.08,91,100,3.25,PT,1702241934
331,gorontalo,0.5412,123.0595,24.04,95,100,1.41,ID,1702241934
332,marsa alam,25.0757,34.8918,23.4,76,100,0.99,EG,1702241935
333,machico,32.7,-16.7667,21.67,87,75,1.54,PT,1702241935
334,tercan,39.7794,40.3925,1.18,87,93,2.11,TR,1702241935
335,hasaki,35.7333,140.8333,12.38,70,98,3.05,JP,1702241935
336,yadgir,16.7667,77.1333,20.61,56,4,2.82,IN,1702241935
337,ngawi,-7.4038,111.4461,24.37,87,100,1.97,ID,1702241936
338,pamandzi,-12.7949,45.282,28.75,79,75,7.72,YT,1702241936
339,khandyga,62.6667,135.6,-33.63,99,100,1.05,RU,1702241936
340,pisco,-13.7,-76.2167,22.79,73,0,3.09,PE,1702241936
341,tindouf,27.6711,-8.1474,18.25,27,94,2.06,DZ,1702241937
342,prince rupert,54.3161,-130.3201,6.83,75,75,9.26,CA,1702241937
343,balqash,46.8481,74.995,-9.02,48,100,4.08,KZ,1702241937
344,nadezhda,44.1,44.6,0.95,94,100,2.99,RU,1702241937
345,afaahiti,-17.75,-149.2833,28.93,83,87,10.96,PF,1702241937
346,tshikapa,-6.4167,20.8,21.84,93,100,0.63,CD,1702241938
347,whistler,50.1164,-122.9695,-0.16,100,100,0.0,CA,1702241938
348,rabo de peixe,37.8,-25.5833,17.77,99,75,5.66,PT,1702241938
349,kokopo,-4.352,152.2633,25.1,85,100,0.81,PG,1702241938
350,fale old settlement,-9.3852,-171.2468,28.25,80,100,4.88,TK,1702241939
351,abbeville,50.1,1.8333,12.5,85,81,9.59,FR,1702241939
352,guankou,31.0024,103.6223,12.13,78,100,1.21,CN,1702241939
353,ville platte,30.688,-92.2715,15.06,36,0,6.21,US,1702241939
354,centenario do sul,-22.8211,-51.5953,25.27,75,100,3.6,BR,1702241940
355,kavieng,-2.5744,150.7967,27.8,78,100,3.63,PG,1702241940
356,leh,34.1667,77.5833,-9.11,36,73,2.03,IN,1702241940
357,baie-saint-paul,47.4411,-70.4986,7.87,91,100,0.94,CA,1702241840
358,williston,48.147,-103.618,2.12,71,77,0.89,US,1702241940
359,vorkuta,67.5,64.0,-25.4,100,100,2.67,RU,1702241941
360,pudozh,61.8099,36.5345,-13.36,93,100,4.02,RU,1702241941
361,ulsteinvik,62.3432,5.8487,3.07,90,53,0.89,NO,1702241941
362,pangoa,-12.1167,-73.0,26.3,82,88,0.33,PE,1702241941
363,azare,11.6765,10.1948,21.24,26,99,4.07,NG,1702241942
364,naracoorte,-36.9579,140.7383,16.72,90,100,5.86,AU,1702241942
365,bikenibeu village,1.3673,173.1241,27.98,89,75,4.12,KI,1702241942
366,vigan,17.5747,120.3869,24.83,86,17,1.75,PH,1702241943
367,jincheng,35.5022,112.8328,-1.78,96,100,1.34,CN,1702241943
368,tsiombe,-25.3,45.4833,24.35,92,32,1.03,MG,1702241943
369,kununurra,-15.7667,128.7333,24.99,83,74,1.03,AU,1702241663
370,kupino,54.3663,77.2981,-29.16,100,93,2.61,RU,1702241944
371,kourou,5.1552,-52.6478,29.03,81,28,2.95,GF,1702241944
372,east london,-33.0153,27.9116,17.15,78,86,1.9,ZA,1702241944
373,am timan,11.0297,20.2827,25.95,17,97,3.06,TD,1702241945
374,quang ngai,15.1167,108.8,22.13,92,96,1.45,VN,1702241945
375,santa isabel,24.072,-104.5408,18.0,32,0,1.86,MX,1702241945
376,hilo,19.7297,-155.09,25.69,99,100,3.58,US,1702241945
377,progreso,21.2833,-89.6667,25.03,81,100,9.81,MX,1702241946
378,dryden,49.7833,-92.7503,-5.84,86,100,2.06,CA,1702241946
379,al buraymi,24.2509,55.7931,18.68,59,0,3.09,OM,1702241946
380,adh dhayd,25.2881,55.8816,23.4,56,58,1.51,AE,1702241947
381,falun,60.6036,15.626,-1.7,94,100,2.7,SE,1702241947
382,sao jose da tapera,-9.5583,-37.3811,28.98,45,22,8.18,BR,1702241947
383,galveston,29.3014,-94.7977,16.13,26,0,9.23,US,1702241948
384,alaghsas,17.0187,8.0168,18.45,22,0,7.04,NE,1702241948
385,crane,31.3974,-102.3501,11.27,22,3,4.93,US,1702241948
386,hassi messaoud,31.6804,6.0729,10.92,46,3,1.54,DZ,1702241764
387,yuzhno-kurilsk,44.0306,145.8556,0.76,76,100,6.08,RU,1702241949
388,vadso,70.0744,29.7487,-10.91,79,40,12.35,NO,1702241949
389,lebu,-37.6167,-73.65,14.8,78,100,9.19,CL,1702241949
390,fiambala,-27.6871,-67.6149,24.38,53,30,5.59,AR,1702241949
391,prado,-17.3411,-39.2208,25.87,77,0,2.59,BR,1702241950
392,uray,60.1247,64.7758,-35.63,99,11,1.79,RU,1702241950
393,nabire,-3.3667,135.4833,24.79,83,100,1.22,ID,1702241950
394,portoferraio,42.8115,10.3146,14.98,87,100,5.14,IT,1702241950
395,saint-francois,46.4154,3.9054,12.58,94,100,4.63,FR,1702241951
396,santa cruz del sur,20.7147,-77.9956,28.05,62,77,2.96,CU,1702241951
397,arzgir,45.3728,44.2206,-0.79,97,97,4.31,RU,1702241951
398,zhoushan,30.0108,122.2047,14.68,96,42,3.1,CN,1702241951
399,ghadamis,30.1337,9.5007,11.53,51,0,2.96,LY,1702241952
400,iwanai,42.9744,140.5089,-2.64,72,100,8.22,JP,1702241952
401,opuwo,-18.0607,13.84,23.56,32,4,2.84,NA,1702241952
402,whakatane,-37.9585,176.9854,17.71,87,98,0.45,NZ,1702241952
403,pontevedra,42.431,-8.6444,18.19,93,100,3.79,ES,1702241953
404,trinity beach,-16.7888,145.6968,24.47,80,100,1.54,AU,1702241953
405,plock,52.5468,19.7064,1.89,99,100,4.51,PL,1702241954
406,misratah,32.3754,15.0925,18.65,66,68,12.72,LY,1702241954
407,laojunmiao,39.8333,97.7333,-3.62,51,99,1.75,CN,1702241954
408,altay,47.8667,88.1167,-16.75,72,32,4.01,CN,1702241955
409,aykhal,66.0,111.5,-28.25,99,100,1.85,RU,1702241955
410,sola,-13.8833,167.55,26.32,79,100,9.44,VU,1702241956
411,jumla,29.2747,82.1838,1.8,24,0,2.39,NP,1702241956
412,jalai nur,49.45,117.7,-31.21,96,5,1.78,CN,1702241956
413,altai,46.3722,96.2583,-14.39,53,59,5.79,MN,1702241956
414,eirunepe,-6.6603,-69.8736,27.35,74,97,0.96,BR,1702241957
415,port hueneme,34.1478,-119.1951,26.87,11,0,7.2,US,1702241844
416,nsanje,-16.92,35.262,31.41,48,98,1.6,MW,1702241958
417,geraldton,-28.7667,114.6,20.23,21,0,5.14,AU,1702241958
418,daru,-9.0763,143.2092,25.73,85,100,1.15,PG,1702241958
419,conception bay south,47.4999,-52.9981,0.97,87,31,2.02,CA,1702241958
420,tumaco,1.7986,-78.8156,27.32,81,44,4.99,CO,1702241959
421,nova vicosa,-17.8919,-39.3719,25.8,78,24,4.25,BR,1702241959
422,flying fish cove,-10.4217,105.6791,24.82,83,75,2.57,CX,1702241959
423,jhelum,32.9331,73.7264,11.97,29,13,1.29,PK,1702241959
424,pampa,35.5362,-100.9599,12.13,26,0,9.77,US,1702241960
425,kapit,2.0167,112.9333,22.91,98,96,0.09,MY,1702241960
426,zakynthos,37.7914,20.8953,11.47,79,84,6.48,GR,1702241960
427,loa janan,-0.583,117.095,22.97,99,100,1.13,ID,1702241961
428,zapolyarnyy,69.4154,30.8136,-16.4,93,44,6.07,RU,1702241961
429,pangody,65.85,74.4859,-33.13,98,77,3.58,RU,1702241961
430,tabas,33.5959,56.9244,11.12,37,9,2.06,IR,1702241961
431,nagqu,31.5,92.0,-12.23,45,35,1.93,CN,1702241962
432,wildwood,38.5828,-90.6629,7.51,47,0,3.09,US,1702241962
433,khao wong,16.7001,104.0902,23.16,67,9,0.22,TH,1702241962
434,lubang,13.8584,120.124,27.28,80,33,7.91,PH,1702241962
435,usogorsk,63.4106,48.6872,-24.07,99,100,3.57,RU,1702241963
436,upata,8.0086,-62.3989,24.9,84,88,2.07,VE,1702241963
437,yatou,37.15,122.3833,5.07,68,100,8.76,CN,1702241963
438,vytegra,61.0064,36.4481,-12.02,92,100,5.36,RU,1702241964
439,itoman,26.1247,127.6694,23.43,92,20,1.54,JP,1702241964
440,calvinia,-31.4707,19.776,17.91,27,0,2.36,ZA,1702241964
441,kamaishi,39.2667,141.8833,4.98,57,100,2.74,JP,1702241964
442,emerald,-23.5333,148.1667,20.75,69,30,7.24,AU,1702241965
443,sur,22.5667,59.5289,22.55,55,5,0.76,OM,1702241965
444,hirara,24.8,125.2833,22.92,94,20,3.09,JP,1702241966
445,borgarnes,64.5383,-21.9206,1.03,93,100,1.25,IS,1702241966
446,mogadishu,2.0371,45.3438,27.4,82,9,7.82,SO,1702241790
447,javea,38.7833,0.1667,17.96,70,19,0.45,ES,1702241966
448,korla,41.7597,86.1469,-3.51,61,13,0.83,CN,1702241967
449,macas,-2.3167,-78.1167,23.86,78,40,2.06,EC,1702241967
450,kone,-21.0595,164.8658,26.27,51,97,3.4,NC,1702241968
451,pokhara,28.2333,83.9833,12.03,60,8,1.9,NP,1702241968
452,lebanon,36.2081,-86.2911,6.54,70,100,6.17,US,1702241791
453,asahi,35.7167,140.65,12.37,76,99,1.58,JP,1702241969
454,anloga,5.7947,0.8973,28.13,78,11,4.73,GH,1702241969
455,cachoeira do sul,-30.0392,-52.8939,23.72,77,67,1.27,BR,1702241969
456,dolores,-36.3132,-57.6792,23.91,62,1,3.97,AR,1702241970
457,puerto santa,-8.9906,-78.6456,21.63,78,10,5.06,PE,1702241970
458,abepura,-2.6333,140.5833,25.45,83,20,2.06,ID,1702241970
459,neryungri,56.6709,124.6491,-30.81,92,100,4.09,RU,1702241970
460,kokshetau,53.2775,69.3883,-30.58,100,100,2.56,KZ,1702241971
461,hammerfest,70.6634,23.6821,-3.75,63,0,3.09,NO,1702241971
462,nago,26.5881,127.9761,23.47,82,8,2.99,JP,1702241971
463,qamdo,31.1667,97.2333,-9.53,66,6,2.27,CN,1702241971
464,al majaridah,19.1236,41.9111,24.36,52,24,0.65,SA,1702241972
465,nan,18.7929,100.7297,21.28,98,11,0.79,TH,1702241972
466,sisimiut,66.9395,-53.6735,-3.72,95,100,5.77,GL,1702241972
467,kolonia,6.964,158.2062,28.39,74,20,7.64,FM,1702241973
468,lebork,54.5392,17.7501,1.62,91,100,5.07,PL,1702241951
469,plastun,44.7561,136.2939,-16.61,55,0,3.4,RU,1702241974
470,oulad teima,30.3947,-9.209,18.6,35,3,0.59,MA,1702241974
471,conde,-7.2597,-34.9075,27.7,69,20,3.6,BR,1702241975
472,trosa,58.8962,17.5481,1.23,89,100,5.52,SE,1702241975
473,zaozersk,69.4005,32.4476,-13.82,90,90,6.58,RU,1702241975
474,obock,11.9631,43.2906,26.01,66,23,4.73,DJ,1702241976
475,mcalester,34.9334,-95.7697,10.05,23,20,3.6,US,1702241922
476,lerwick,60.1545,-1.1494,7.0,70,100,8.62,GB,1702241761
477,dunedin,-45.8742,170.5036,13.64,60,10,1.9,NZ,1702241976
478,ipatovo,45.7181,42.9036,-0.31,96,100,5.51,RU,1702241976
479,zimapan,20.75,-99.35,7.37,92,100,2.48,MX,1702241977
480,virac,13.6333,124.2167,22.37,86,89,2.17,PH,1702241977
481,pontes e lacerda,-15.2261,-59.3353,26.38,76,99,2.64,BR,1702241978
482,dingcheng,32.5161,117.6595,4.85,86,100,8.01,CN,1702241978
483,daryapur,20.9333,77.3333,18.79,59,12,2.68,IN,1702241978
484,vilyuysk,63.7553,121.6247,-29.45,97,100,3.29,RU,1702241849
485,reggane,26.7158,0.1714,16.95,38,5,4.91,DZ,1702241979
486,guichon,-32.35,-57.2,24.69,57,56,3.62,UY,1702241979
487,mao,39.8885,4.2658,15.31,100,20,2.06,ES,1702241979
488,vilhena,-12.7406,-60.1458,25.12,83,75,2.57,BR,1702241979
489,coquimbo,-29.9533,-71.3436,17.85,72,75,5.14,CL,1702241980
490,bin yauri,10.7823,4.8114,25.25,13,3,2.2,NG,1702241980
491,masina,-4.3836,15.3914,28.19,78,40,4.12,CD,1702241980
492,boa vista,2.8197,-60.6733,30.99,58,75,3.6,BR,1702241976
493,tazacorte,28.629,-17.9293,21.75,49,75,3.13,ES,1702241981
494,soure,-0.7167,-48.5233,27.74,76,56,5.59,BR,1702241828
495,ulladulla,-35.35,150.4667,22.65,80,100,2.57,AU,1702241981
496,rio gallegos,-51.6226,-69.2181,15.03,36,0,3.6,AR,1702241756
497,jodar,37.8406,-3.3526,13.58,73,20,0.65,ES,1702241982
498,zima,53.9202,102.0442,-34.81,100,7,0.68,RU,1702241982
499,mount gambier,-37.8333,140.7667,15.77,82,100,6.39,AU,1702241924
500,tianpeng,30.9866,103.9393,12.89,73,100,1.8,CN,1702241983
501,macherla,16.4833,79.4333,20.22,70,99,0.97,IN,1702241983
502,bereznik,62.8551,42.7072,-15.46,90,100,5.37,RU,1702241983
503,saint-louis du nord,19.9333,-72.7167,27.61,77,45,9.16,HT,1702241983
504,san patricio,19.2167,-104.7,27.89,55,100,0.53,MX,1702241984
505,colon,9.3592,-79.9014,28.36,83,21,2.95,PA,1702241984
506,nouadhibou,20.931,-17.0347,22.99,46,0,5.14,MR,1702241984
